{"SS0101":{"pcode":"SS0101","county":"Juba","state":"Central Equatoria","centroidLat":4.83555,"centroidLon":31.53195,"topFacilities":[{"name":"Gudele Surgical Home Private Hospital","type":"Hospital","state":"Cent Eq","county":"Juba","lat":4.86786,"lon":31.5517,"distKm":4.2,"typeRank":1},{"name":"Gurei Phcc","type":"Primary Health Care Centre","state":"Cent Eq","county":"Juba","lat":4.86667,"lon":31.51851,"distKm":3.8,"typeRank":2},{"name":"St.Kizito Phcc","type":"Primary Health Care Centre","state":"Cent Eq","county":"Juba","lat":4.86008,"lon":31.57175,"distKm":5.2,"typeRank":2}],"topMarkets":[{"name":"Juba (IDP Camp)","county":"Juba","state":"Central Equatoria","lat":4.81,"lon":31.53,"distKm":2.8},{"name":"Gudele","county":"Juba","state":"Central Equatoria","lat":4.87,"lon":31.54,"distKm":3.9},{"name":"Suk Libya","county":"Juba","state":"Central Equatoria","lat":4.86,"lon":31.57,"distKm":5.0}]},"SS0102":{"pcode":"SS0102","county":"Kajo-Keji","state":"Central Equatoria","centroidLat":3.8468,"centroidLon":31.5084,"topFacilities":[{"name":"Kajo Keji Civil Hospital","type":"Hospital","state":"Cent Eq","county":"Kajo-Keji","lat":3.85361,"lon":31.65651,"distKm":16.4,"typeRank":1},{"name":"Bori Phcc","type":"Primary Health Care Centre","state":"Cent Eq","county":"Kajo-Keji","lat":3.77401,"lon":31.5102,"distKm":8.1,"typeRank":2},{"name":"Kinyiba Phcc","type":"Primary Health Care Centre","state":"Cent Eq","county":"Kajo-Keji","lat":3.82158,"lon":31.58131,"distKm":8.6,"typeRank":2}],"topMarkets":[{"name":"Nimule","county":"Magwi","state":"Eastern Equatoria","lat":3.6,"lon":32.06,"distKm":67.1},{"name":"Gorom","county":"Juba","state":"Central Equatoria","lat":4.45,"lon":31.26,"distKm":72.5},{"name":"Morobo","county":"Morobo","state":"Central Equatoria","lat":3.68,"lon":30.78,"distKm":82.9}]},"SS0103":{"pcode":"SS0103","county":"Lainya","state":"Central Equatoria","centroidLat":4.24076,"centroidLon":30.96122,"topFacilities":[{"name":"Yei Civil Hospital","type":"Hospital","state":"Cent Eq","county":"Yei","lat":4.09133,"lon":30.6756,"distKm":35.8,"typeRank":1},{"name":"Lora Phcc","type":"Primary Health Care Centre","state":"Cent Eq","county":"Lainya","lat":4.22372,"lon":30.95829,"distKm":1.9,"typeRank":2},{"name":"Limbe Phcc","type":"Primary Health Care Centre","state":"Cent Eq","county":"Lainya","lat":4.16106,"lon":30.86092,"distKm":14.2,"typeRank":2}],"topMarkets":[{"name":"Yei","county":"Yei","state":"Central Equatoria","lat":4.09,"lon":30.68,"distKm":35.4},{"name":"Gorom","county":"Juba","state":"Central Equatoria","lat":4.45,"lon":31.26,"distKm":40.5},{"name":"Morobo","county":"Morobo","state":"Central Equatoria","lat":3.68,"lon":30.78,"distKm":65.5}]},"SS0104":{"pcode":"SS0104","county":"Morobo","state":"Central Equatoria","centroidLat":3.71333,"centroidLon":30.80024,"topFacilities":[{"name":"Yei Civil Hospital","type":"Hospital","state":"Cent Eq","county":"Yei","lat":4.09133,"lon":30.6756,"distKm":44.2,"typeRank":1},{"name":"Morobo Phcc","type":"Primary Health Care Centre","state":"Cent Eq","county":"Morobo","lat":3.68784,"lon":30.77521,"distKm":4.0,"typeRank":2},{"name":"Aworo/Aboroto Phcc","type":"Primary Health Care Centre","state":"Cent Eq","county":"Morobo","lat":3.66044,"lon":30.70989,"distKm":11.6,"typeRank":2}],"topMarkets":[{"name":"Morobo","county":"Morobo","state":"Central Equatoria","lat":3.68,"lon":30.78,"distKm":4.3},{"name":"Yei","county":"Yei","state":"Central Equatoria","lat":4.09,"lon":30.68,"distKm":44.0},{"name":"Gorom","county":"Juba","state":"Central Equatoria","lat":4.45,"lon":31.26,"distKm":96.5}]},"SS0105":{"pcode":"SS0105","county":"Terekeka","state":"Central Equatoria","centroidLat":5.58238,"centroidLon":31.51223,"topFacilities":[{"name":"Bor State Hospital","type":"Hospital","state":"Jonglei","county":"Bor South","lat":6.20645,"lon":31.55588,"distKm":69.6,"typeRank":1},{"name":"Rijong Phcc","type":"Primary Health Care Centre","state":"Cent Eq","county":"Terekeka","lat":5.51448,"lon":31.32817,"distKm":21.7,"typeRank":2},{"name":"Muni Phcc","type":"Primary Health Care Centre","state":"Cent Eq","county":"Terekeka","lat":5.64401,"lon":31.72021,"distKm":24.0,"typeRank":2}],"topMarkets":[{"name":"Terekeka","county":"Terekeka","state":"Central Equatoria","lat":5.45,"lon":31.75,"distKm":30.2},{"name":"Gemmeiza","county":"Terekeka","state":"Central Equatoria","lat":5.68,"lon":31.8,"distKm":33.6},{"name":"Tindilo","county":"Terekeka","state":"Central Equatoria","lat":5.66,"lon":31.06,"distKm":50.8}]},"SS0106":{"pcode":"SS0106","county":"Yei","state":"Central Equatoria","centroidLat":4.10031,"centroidLon":30.52202,"topFacilities":[{"name":"Yei Civil Hospital","type":"Hospital","state":"Cent Eq","county":"Yei","lat":4.09133,"lon":30.6756,"distKm":17.1,"typeRank":1},{"name":"St Bakhita Phcc","type":"Primary Health Care Centre","state":"Cent Eq","county":"Yei","lat":4.10319,"lon":30.63238,"distKm":12.2,"typeRank":2},{"name":"Martha Phcc","type":"Primary Health Care Centre","state":"Cent Eq","county":"Yei","lat":4.09743,"lon":30.66782,"distKm":16.2,"typeRank":2}],"topMarkets":[{"name":"Yei","county":"Yei","state":"Central Equatoria","lat":4.09,"lon":30.68,"distKm":17.6},{"name":"Morobo","county":"Morobo","state":"Central Equatoria","lat":3.68,"lon":30.78,"distKm":54.8},{"name":"Gorom","county":"Juba","state":"Central Equatoria","lat":4.45,"lon":31.26,"distKm":90.6}]},"SS0201":{"pcode":"SS0201","county":"Budi","state":"Eastern Equatoria","centroidLat":4.28287,"centroidLon":33.54614,"topFacilities":[{"name":"Chukudum Hospital","type":"Hospital","state":"East Eq","county":"Budi","lat":4.22797,"lon":33.48606,"distKm":9.0,"typeRank":1},{"name":"Nagishot Phcc","type":"Primary Health Care Centre","state":"East Eq","county":"Budi","lat":4.26734,"lon":33.56633,"distKm":2.8,"typeRank":2},{"name":"Komiri Phcc","type":"Primary Health Care Centre","state":"East Eq","county":"Budi","lat":4.22756,"lon":33.49284,"distKm":8.5,"typeRank":2}],"topMarkets":[{"name":"Chukudum","county":"Budi","state":"Eastern Equatoria","lat":4.24,"lon":33.49,"distKm":7.8},{"name":"Kapoeta South","county":"Kapoeta South","state":"Eastern Equatoria","lat":4.77,"lon":33.59,"distKm":54.4},{"name":"Narus (Kapoeta East)","county":"Kapoeta East","state":"Eastern Equatoria","lat":4.5,"lon":34.16,"distKm":72.2}]},"SS0202":{"pcode":"SS0202","county":"Ikotos","state":"Eastern Equatoria","centroidLat":4.13594,"centroidLon":33.07948,"topFacilities":[{"name":"St Theresa Isohe Mission Hospital","type":"Hospital","state":"East Eq","county":"Ikotos","lat":4.24033,"lon":33.07546,"distKm":11.6,"typeRank":1},{"name":"Ikwoto Phcc","type":"Primary Health Care Centre","state":"East Eq","county":"Ikotos","lat":4.0797,"lon":33.09857,"distKm":6.6,"typeRank":2},{"name":"Imotong Phcc","type":"Primary Health Care Centre","state":"East Eq","county":"Ikotos","lat":4.17101,"lon":32.84174,"distKm":26.7,"typeRank":2}],"topMarkets":[{"name":"Chukudum","county":"Budi","state":"Eastern Equatoria","lat":4.24,"lon":33.49,"distKm":47.0},{"name":"Torit","county":"Torit","state":"Eastern Equatoria","lat":4.41,"lon":32.57,"distKm":64.2},{"name":"Magwi","county":"Magwi","state":"Eastern Equatoria","lat":4.13,"lon":32.3,"distKm":86.5}]},"SS0203":{"pcode":"SS0203","county":"Kapoeta East","state":"Eastern Equatoria","centroidLat":4.93976,"centroidLon":34.19291,"topFacilities":[{"name":"Kapoeta Mission Hospital","type":"Hospital","state":"East Eq","county":"Kapoeta South","lat":4.74505,"lon":33.6018,"distKm":69.0,"typeRank":1},{"name":"Narus Cdot Phcc","type":"Primary Health Care Centre","state":"East Eq","county":"Kapoeta East","lat":4.50478,"lon":34.17014,"distKm":48.4,"typeRank":2},{"name":"Narus Phcc","type":"Primary Health Care Centre","state":"East Eq","county":"Kapoeta East","lat":4.50338,"lon":34.16179,"distKm":48.6,"typeRank":2}],"topMarkets":[{"name":"Riwoto (Kapoeta North)","county":"Kapoeta East","state":"Eastern Equatoria","lat":5.16,"lon":34.33,"distKm":28.8},{"name":"Narus (Kapoeta East)","county":"Kapoeta East","state":"Eastern Equatoria","lat":4.5,"lon":34.16,"distKm":49.0},{"name":"Kapoeta South","county":"Kapoeta South","state":"Eastern Equatoria","lat":4.77,"lon":33.59,"distKm":69.4}]},"SS0204":{"pcode":"SS0204","county":"Kapoeta North","state":"Eastern Equatoria","centroidLat":4.936,"centroidLon":33.50668,"topFacilities":[{"name":"Kapoeta Civil Hospital","type":"Hospital","state":"East Eq","county":"Kapoeta South","lat":4.77239,"lon":33.59156,"distKm":20.5,"typeRank":1},{"name":"Riwoto Phcc","type":"Primary Health Care Centre","state":"East Eq","county":"Kapoeta North","lat":4.88217,"lon":33.50584,"distKm":6.0,"typeRank":2},{"name":"Naakwa Phcc","type":"Primary Health Care Centre","state":"East Eq","county":"Kapoeta North","lat":5.06715,"lon":33.55346,"distKm":15.5,"typeRank":2}],"topMarkets":[{"name":"Kapoeta South","county":"Kapoeta South","state":"Eastern Equatoria","lat":4.77,"lon":33.59,"distKm":20.6},{"name":"Chukudum","county":"Budi","state":"Eastern Equatoria","lat":4.24,"lon":33.49,"distKm":77.4},{"name":"Narus (Kapoeta East)","county":"Kapoeta East","state":"Eastern Equatoria","lat":4.5,"lon":34.16,"distKm":87.1}]},"SS0205":{"pcode":"SS0205","county":"Kapoeta South","state":"Eastern Equatoria","centroidLat":4.7152,"centroidLon":33.59805,"topFacilities":[{"name":"Kapoeta Mission Hospital","type":"Hospital","state":"East Eq","county":"Kapoeta South","lat":4.74505,"lon":33.6018,"distKm":3.3,"typeRank":1},{"name":"Katiko Phcc","type":"Primary Health Care Centre","state":"East Eq","county":"Kapoeta South","lat":4.72629,"lon":33.53197,"distKm":7.4,"typeRank":2},{"name":"Normeca Phcc","type":"Primary Health Care Centre","state":"East Eq","county":"Kapoeta South","lat":4.725,"lon":33.53152,"distKm":7.5,"typeRank":2}],"topMarkets":[{"name":"Kapoeta South","county":"Kapoeta South","state":"Eastern Equatoria","lat":4.77,"lon":33.59,"distKm":6.2},{"name":"Chukudum","county":"Budi","state":"Eastern Equatoria","lat":4.24,"lon":33.49,"distKm":54.2},{"name":"Narus (Kapoeta East)","county":"Kapoeta East","state":"Eastern Equatoria","lat":4.5,"lon":34.16,"distKm":66.7}]},"SS0206":{"pcode":"SS0206","county":"Lafon","state":"Eastern Equatoria","centroidLat":4.86116,"centroidLon":32.62271,"topFacilities":[{"name":"Torit Military Hospital","type":"Hospital","state":"East Eq","county":"Torit","lat":4.41873,"lon":32.55938,"distKm":49.7,"typeRank":1},{"name":"Imehejek Phcc","type":"Primary Health Care Centre","state":"East Eq","county":"Lafon","lat":4.78175,"lon":32.76149,"distKm":17.7,"typeRank":2},{"name":"Loronyo Phcc","type":"Primary Health Care Centre","state":"East Eq","county":"Torit","lat":4.64901,"lon":32.64434,"distKm":23.7,"typeRank":2}],"topMarkets":[{"name":"Torit","county":"Torit","state":"Eastern Equatoria","lat":4.41,"lon":32.57,"distKm":50.5},{"name":"Magwi","county":"Magwi","state":"Eastern Equatoria","lat":4.13,"lon":32.3,"distKm":88.8},{"name":"Mangala","county":"Juba","state":"Central Equatoria","lat":5.19,"lon":31.78,"distKm":100.3}]},"SS0207":{"pcode":"SS0207","county":"Magwi","state":"Eastern Equatoria","centroidLat":3.86322,"centroidLon":32.28579,"topFacilities":[{"name":"Nimule Hospital","type":"Hospital","state":"East Eq","county":"Magwi","lat":3.60036,"lon":32.05673,"distKm":38.7,"typeRank":1},{"name":"Nyaciga Phcc","type":"Primary Health Care Centre","state":"East Eq","county":"Magwi","lat":3.83963,"lon":32.25249,"distKm":4.5,"typeRank":2},{"name":"Pajok Phcc","type":"Primary Health Care Centre","state":"East Eq","county":"Magwi","lat":3.85995,"lon":32.48367,"distKm":22.0,"typeRank":2}],"topMarkets":[{"name":"Magwi","county":"Magwi","state":"Eastern Equatoria","lat":4.13,"lon":32.3,"distKm":29.7},{"name":"Nimule","county":"Magwi","state":"Eastern Equatoria","lat":3.6,"lon":32.06,"distKm":38.5},{"name":"Torit","county":"Torit","state":"Eastern Equatoria","lat":4.41,"lon":32.57,"distKm":68.5}]},"SS0208":{"pcode":"SS0208","county":"Torit","state":"Eastern Equatoria","centroidLat":4.38989,"centroidLon":32.54384,"topFacilities":[{"name":"Torit Military Hospital","type":"Hospital","state":"East Eq","county":"Torit","lat":4.41873,"lon":32.55938,"distKm":3.6,"typeRank":1},{"name":"Nyong Phcc","type":"Primary Health Care Centre","state":"East Eq","county":"Torit","lat":4.41289,"lon":32.57073,"distKm":3.9,"typeRank":2},{"name":"National Health Insurance Phcc","type":"Primary Health Care Centre","state":"East Eq","county":"Torit","lat":4.4078,"lon":32.58065,"distKm":4.5,"typeRank":2}],"topMarkets":[{"name":"Torit","county":"Torit","state":"Eastern Equatoria","lat":4.41,"lon":32.57,"distKm":3.7},{"name":"Magwi","county":"Magwi","state":"Eastern Equatoria","lat":4.13,"lon":32.3,"distKm":39.6},{"name":"Nimule","county":"Magwi","state":"Eastern Equatoria","lat":3.6,"lon":32.06,"distKm":102.9}]},"SS0301":{"pcode":"SS0301","county":"Akobo","state":"Jonglei","centroidLat":7.9847,"centroidLon":32.63099,"topFacilities":[{"name":"Akobo Hospital","type":"Hospital","state":"Jonglei","county":"Akobo","lat":7.79903,"lon":33.01014,"distKm":46.6,"typeRank":1},{"name":"Kaikuiny Phcc","type":"Primary Health Care Centre","state":"Jonglei","county":"Akobo","lat":8.09268,"lon":32.3857,"distKm":29.6,"typeRank":2},{"name":"Buong Phcc","type":"Primary Health Care Centre","state":"Jonglei","county":"Akobo","lat":8.16169,"lon":32.38052,"distKm":33.9,"typeRank":2}],"topMarkets":[{"name":"Akobo","county":"Akobo","state":"Jonglei","lat":7.79,"lon":33.01,"distKm":47.0},{"name":"Walgak","county":"Akobo","state":"Jonglei","lat":8.16,"lon":32.24,"distKm":47.3},{"name":"Ulang","county":"Ulang","state":"Upper Nile","lat":8.66,"lon":32.72,"distKm":75.7}]},"SS0302":{"pcode":"SS0302","county":"Ayod","state":"Jonglei","centroidLat":8.2812,"centroidLon":31.20385,"topFacilities":[{"name":"Payuel Lost Boys County Hospital","type":"Hospital","state":"Jonglei","county":"Duk","lat":7.48111,"lon":31.51638,"distKm":95.4,"typeRank":1},{"name":"Longor Phcc","type":"Primary Health Care Centre","state":"Jonglei","county":"Ayod","lat":8.29193,"lon":31.19792,"distKm":1.4,"typeRank":2},{"name":"Jiech / Wau Phcc","type":"Primary Health Care Centre","state":"Jonglei","county":"Ayod","lat":8.37239,"lon":31.13615,"distKm":12.6,"typeRank":2}],"topMarkets":[{"name":"Ayod","county":"Ayod","state":"Jonglei","lat":8.13,"lon":31.41,"distKm":28.2},{"name":"Padiet","county":"Duk","state":"Jonglei","lat":7.75,"lon":31.4,"distKm":62.9},{"name":"Yuai","county":"Uror","state":"Jonglei","lat":7.91,"lon":31.89,"distKm":86.1}]},"SS0303":{"pcode":"SS0303","county":"Bor South","state":"Jonglei","centroidLat":6.28582,"centroidLon":31.58098,"topFacilities":[{"name":"Bor State Hospital","type":"Hospital","state":"Jonglei","county":"Bor South","lat":6.20645,"lon":31.55588,"distKm":9.3,"typeRank":1},{"name":"Makuach Phcc","type":"Primary Health Care Centre","state":"Jonglei","county":"Bor South","lat":6.22629,"lon":31.56801,"distKm":6.8,"typeRank":2},{"name":"Bor Prison Phcc","type":"Primary Health Care Centre","state":"Jonglei","county":"Bor South","lat":6.22424,"lon":31.59686,"distKm":7.1,"typeRank":2}],"topMarkets":[{"name":"Bor","county":"Bor South","state":"Jonglei","lat":6.21,"lon":31.57,"distKm":8.5},{"name":"Bor (IDP Camp)","county":"Bor South","state":"Jonglei","lat":6.2,"lon":31.6,"distKm":9.8},{"name":"Minkaman","county":"Awerial","state":"Lakes","lat":6.05,"lon":31.52,"distKm":27.1}]},"SS0304":{"pcode":"SS0304","county":"Canal Pigi","state":"Jonglei","centroidLat":9.29118,"centroidLon":31.57824,"topFacilities":[{"name":"Malakal Teaching Hospital","type":"Hospital","state":"Upper Nile","county":"Malakal","lat":9.52905,"lon":31.65183,"distKm":27.7,"typeRank":1},{"name":"Khorfulus Phcc","type":"Primary Health Care Centre","state":"Jonglei","county":"Canal/Pigi","lat":9.31476,"lon":31.57998,"distKm":2.6,"typeRank":2},{"name":"Canal Phcc","type":"Primary Health Care Centre","state":"Jonglei","county":"Canal/Pigi","lat":9.36284,"lon":31.54954,"distKm":8.6,"typeRank":2}],"topMarkets":[{"name":"Malakal","county":"Malakal","state":"Upper Nile","lat":9.53,"lon":31.66,"distKm":28.0},{"name":"Malakal (IDP Camp)","county":"Malakal","state":"Upper Nile","lat":9.57,"lon":31.64,"distKm":31.7},{"name":"New Fangak","county":"Fangak","state":"Jonglei","lat":9.4,"lon":31.16,"distKm":47.5}]},"SS0305":{"pcode":"SS0305","county":"Duk","state":"Jonglei","centroidLat":7.72186,"centroidLon":31.49324,"topFacilities":[{"name":"Payuel Lost Boys County Hospital","type":"Hospital","state":"Jonglei","county":"Duk","lat":7.48111,"lon":31.51638,"distKm":26.9,"typeRank":1},{"name":"Padiet Phcc","type":"Primary Health Care Centre","state":"Jonglei","county":"Duk","lat":7.74916,"lon":31.39555,"distKm":11.2,"typeRank":2},{"name":"Mareng Phcc","type":"Primary Health Care Centre","state":"Jonglei","county":"Duk","lat":7.5916,"lon":31.38104,"distKm":19.0,"typeRank":2}],"topMarkets":[{"name":"Padiet","county":"Duk","state":"Jonglei","lat":7.75,"lon":31.4,"distKm":10.7},{"name":"Mathiang","county":"Duk","state":"Jonglei","lat":7.52,"lon":31.48,"distKm":22.5},{"name":"Ayod","county":"Ayod","state":"Jonglei","lat":8.13,"lon":31.41,"distKm":46.3}]},"SS0306":{"pcode":"SS0306","county":"Fangak","state":"Jonglei","centroidLat":9.16032,"centroidLon":30.81393,"topFacilities":[{"name":"Old Fangak Hospital","type":"Hospital","state":"Jonglei","county":"Fangak","lat":9.4052,"lon":31.15691,"distKm":46.5,"typeRank":1},{"name":"Kuernyang Phcc","type":"Primary Health Care Centre","state":"Jonglei","county":"Fangak","lat":9.3198,"lon":30.88526,"distKm":19.4,"typeRank":2},{"name":"Keew Phcc","type":"Primary Health Care Centre","state":"Jonglei","county":"Fangak","lat":9.26298,"lon":30.63498,"distKm":22.7,"typeRank":2}],"topMarkets":[{"name":"Old Fangak","county":"Fangak","state":"Jonglei","lat":9.07,"lon":30.88,"distKm":12.4},{"name":"Paguir","county":"Fangak","state":"Jonglei","lat":9.13,"lon":30.69,"distKm":14.0},{"name":"Tonga","county":"Panyikang","state":"Upper Nile","lat":9.47,"lon":31.05,"distKm":43.1}]},"SS0307":{"pcode":"SS0307","county":"Nyirol","state":"Jonglei","centroidLat":8.51206,"centroidLon":32.07054,"topFacilities":[{"name":"Msf - Holland Hospital","type":"Hospital","state":"Upper Nile","county":"Luakpiny/Nasir","lat":8.61104,"lon":33.05802,"distKm":109.1,"typeRank":1},{"name":"Lankien Phcc","type":"Primary Health Care Centre","state":"Jonglei","county":"Nyirol","lat":8.53006,"lon":32.06276,"distKm":2.2,"typeRank":2},{"name":"Chuil Phcc","type":"Primary Health Care Centre","state":"Jonglei","county":"Nyirol","lat":8.57166,"lon":32.07666,"distKm":6.7,"typeRank":2}],"topMarkets":[{"name":"Lankien","county":"Nyirol","state":"Jonglei","lat":8.52,"lon":32.06,"distKm":1.5},{"name":"Walgak","county":"Akobo","state":"Jonglei","lat":8.16,"lon":32.24,"distKm":43.4},{"name":"Udier","county":"Uror","state":"Jonglei","lat":7.92,"lon":31.92,"distKm":67.9}]},"SS0308":{"pcode":"SS0308","county":"Pibor","state":"Jonglei","centroidLat":6.60687,"centroidLon":33.40095,"topFacilities":[{"name":"Akobo Hospital","type":"Hospital","state":"Jonglei","county":"Akobo","lat":7.79903,"lon":33.01014,"distKm":139.4,"typeRank":1},{"name":"Pibor Phcc","type":"Primary Health Care Centre","state":"Jonglei","county":"Pibor","lat":6.79333,"lon":33.62466,"distKm":32.3,"typeRank":2},{"name":"Pibor Msf Phcc","type":"Primary Health Care Centre","state":"Jonglei","county":"Pibor","lat":6.79989,"lon":33.12232,"distKm":37.5,"typeRank":2}],"topMarkets":[{"name":"Pibor","county":"Pibor","state":"Jonglei","lat":6.8,"lon":33.13,"distKm":36.8},{"name":"Gumuruk","county":"Pibor","state":"Jonglei","lat":6.63,"lon":32.91,"distKm":54.3},{"name":"Lekuangole","county":"Pibor","state":"Jonglei","lat":7.05,"lon":33.01,"distKm":65.5}]},"SS0309":{"pcode":"SS0309","county":"Pochalla","state":"Jonglei","centroidLat":7.16237,"centroidLon":34.04815,"topFacilities":[{"name":"Akobo Hospital","type":"Hospital","state":"Jonglei","county":"Akobo","lat":7.79903,"lon":33.01014,"distKm":134.6,"typeRank":1},{"name":"Pochalla Phcc","type":"Primary Health Care Centre","state":"Jonglei","county":"Pochalla","lat":7.1743,"lon":34.08776,"distKm":4.6,"typeRank":2},{"name":"Pibor Phcc","type":"Primary Health Care Centre","state":"Jonglei","county":"Pibor","lat":6.79333,"lon":33.62466,"distKm":62.2,"typeRank":2}],"topMarkets":[{"name":"Pibor","county":"Pibor","state":"Jonglei","lat":6.8,"lon":33.13,"distKm":109.1},{"name":"Lekuangole","county":"Pibor","state":"Jonglei","lat":7.05,"lon":33.01,"distKm":115.2},{"name":"Akobo","county":"Akobo","state":"Jonglei","lat":7.79,"lon":33.01,"distKm":134.1}]},"SS0310":{"pcode":"SS0310","county":"Twic East","state":"Jonglei","centroidLat":7.07753,"centroidLon":31.37434,"topFacilities":[{"name":"Panyagor County Hospital","type":"Hospital","state":"Jonglei","county":"Twic East","lat":7.16644,"lon":31.40763,"distKm":10.5,"typeRank":1},{"name":"Kongor Phcc","type":"Primary Health Care Centre","state":"Jonglei","county":"Twic East","lat":7.15625,"lon":31.35535,"distKm":9.0,"typeRank":2},{"name":"Palieu Phcc","type":"Primary Health Care Centre","state":"Jonglei","county":"Twic East","lat":6.96001,"lon":31.37847,"distKm":13.1,"typeRank":2}],"topMarkets":[{"name":"Mabior","county":"Twic East","state":"Jonglei","lat":7.24,"lon":31.22,"distKm":24.8},{"name":"Mathiang","county":"Duk","state":"Jonglei","lat":7.52,"lon":31.48,"distKm":50.6},{"name":"Padiet","county":"Duk","state":"Jonglei","lat":7.75,"lon":31.4,"distKm":74.8}]},"SS0311":{"pcode":"SS0311","county":"Uror","state":"Jonglei","centroidLat":8.02524,"centroidLon":31.93561,"topFacilities":[{"name":"Payuel Lost Boys County Hospital","type":"Hospital","state":"Jonglei","county":"Duk","lat":7.48111,"lon":31.51638,"distKm":76.1,"typeRank":1},{"name":"Pulchol Phcc","type":"Primary Health Care Centre","state":"Jonglei","county":"Uror","lat":8.11236,"lon":31.96165,"distKm":10.1,"typeRank":2},{"name":"Pieri Phcc","type":"Primary Health Care Centre","state":"Jonglei","county":"Uror","lat":8.03996,"lon":32.03099,"distKm":10.6,"typeRank":2}],"topMarkets":[{"name":"Udier","county":"Uror","state":"Jonglei","lat":7.92,"lon":31.92,"distKm":11.8},{"name":"Yuai","county":"Uror","state":"Jonglei","lat":7.91,"lon":31.89,"distKm":13.8},{"name":"Walgak","county":"Akobo","state":"Jonglei","lat":8.16,"lon":32.24,"distKm":36.7}]},"SS0401":{"pcode":"SS0401","county":"Awerial","state":"Lakes","centroidLat":6.11559,"centroidLon":31.24809,"topFacilities":[{"name":"Bor State Hospital","type":"Hospital","state":"Jonglei","county":"Bor South","lat":6.20645,"lon":31.55588,"distKm":35.5,"typeRank":1},{"name":"Minkaman Phcc","type":"Primary Health Care Centre","state":"Lakes","county":"Awerial","lat":6.0563,"lon":31.51229,"distKm":29.9,"typeRank":2},{"name":"Bunagok Phcc","type":"Primary Health Care Centre","state":"Lakes","county":"Awerial","lat":6.21347,"lon":30.99541,"distKm":30.0,"typeRank":2}],"topMarkets":[{"name":"Minkaman","county":"Awerial","state":"Lakes","lat":6.05,"lon":31.52,"distKm":30.9},{"name":"Bor","county":"Bor South","state":"Jonglei","lat":6.21,"lon":31.57,"distKm":37.1},{"name":"Bor (IDP Camp)","county":"Bor South","state":"Jonglei","lat":6.2,"lon":31.6,"distKm":40.0}]},"SS0402":{"pcode":"SS0402","county":"Cueibet","state":"Lakes","centroidLat":7.04169,"centroidLon":29.31656,"topFacilities":[{"name":"Cueibet County Hospital","type":"Hospital","state":"Lakes","county":"Cueibet","lat":7.01311,"lon":29.24181,"distKm":8.8,"typeRank":1},{"name":"Abiriu Phcc","type":"Primary Health Care Centre","state":"Lakes","county":"Cueibet","lat":6.93931,"lon":29.42391,"distKm":16.4,"typeRank":2},{"name":"Chitchok Phcc","type":"Primary Health Care Centre","state":"Lakes","county":"Cueibet","lat":7.19487,"lon":29.22201,"distKm":20.0,"typeRank":2}],"topMarkets":[{"name":"Cueibet","county":"Cueibet","state":"Lakes","lat":7.01,"lon":29.25,"distKm":8.1},{"name":"Rumbek","county":"Rumbek Centre","state":"Lakes","lat":6.8,"lon":29.68,"distKm":48.3},{"name":"Pacong","county":"Rumbek East","state":"Lakes","lat":6.69,"lon":29.79,"distKm":65.3}]},"SS0403":{"pcode":"SS0403","county":"Rumbek Centre","state":"Lakes","centroidLat":6.94333,"centroidLon":29.70832,"topFacilities":[{"name":"Rumbek State Hospital","type":"Hospital","state":"Lakes","county":"Rumbek Centre","lat":6.80953,"lon":29.68084,"distKm":15.2,"typeRank":1},{"name":"Matangai Phcc","type":"Primary Health Care Centre","state":"Lakes","county":"Rumbek Centre","lat":6.84774,"lon":29.61678,"distKm":14.7,"typeRank":2},{"name":"Diocese Of Rumbek Phcc","type":"Primary Health Care Centre","state":"Lakes","county":"Rumbek Centre","lat":6.81733,"lon":29.66599,"distKm":14.8,"typeRank":2}],"topMarkets":[{"name":"Rumbek","county":"Rumbek Centre","state":"Lakes","lat":6.8,"lon":29.68,"distKm":16.2},{"name":"Pacong","county":"Rumbek East","state":"Lakes","lat":6.69,"lon":29.79,"distKm":29.6},{"name":"Aduel","county":"Rumbek East","state":"Lakes","lat":6.63,"lon":29.9,"distKm":40.8}]},"SS0404":{"pcode":"SS0404","county":"Rumbek East","state":"Lakes","centroidLat":6.6579,"centroidLon":29.88561,"topFacilities":[{"name":"Kiir Mayardit Woman Hospital","type":"Hospital","state":"Lakes","county":"Rumbek Centre","lat":6.80064,"lon":29.69063,"distKm":26.7,"typeRank":1},{"name":"Aduel Phcc","type":"Primary Health Care Centre","state":"Lakes","county":"Rumbek East","lat":6.62949,"lon":29.89793,"distKm":3.4,"typeRank":2},{"name":"Adol Phcc","type":"Primary Health Care Centre","state":"Lakes","county":"Rumbek East","lat":6.62712,"lon":29.91947,"distKm":5.1,"typeRank":2}],"topMarkets":[{"name":"Aduel","county":"Rumbek East","state":"Lakes","lat":6.63,"lon":29.9,"distKm":3.5},{"name":"Pacong","county":"Rumbek East","state":"Lakes","lat":6.69,"lon":29.79,"distKm":11.1},{"name":"Akot","county":"Rumbek East","state":"Lakes","lat":6.55,"lon":30.03,"distKm":20.0}]},"SS0405":{"pcode":"SS0405","county":"Rumbek North","state":"Lakes","centroidLat":7.6447,"centroidLon":29.69465,"topFacilities":[{"name":"St. Daniel Comboni Hospital","type":"Hospital","state":"Warrap","county":"Tonj North","lat":8.03284,"lon":29.18271,"distKm":71.0,"typeRank":1},{"name":"Maper Phcc","type":"Primary Health Care Centre","state":"Lakes","county":"Rumbek North","lat":7.69322,"lon":29.72069,"distKm":6.1,"typeRank":2},{"name":"Paweng Phcc","type":"Primary Health Care Centre","state":"Warrap","county":"Tonj East","lat":8.05967,"lon":29.42267,"distKm":55.0,"typeRank":2}],"topMarkets":[{"name":"Maper","county":"Rumbek North","state":"Lakes","lat":7.7,"lon":29.72,"distKm":6.8},{"name":"Nyal","county":"Panyijiar","state":"Unity","lat":7.73,"lon":30.25,"distKm":61.9},{"name":"Cueibet","county":"Cueibet","state":"Lakes","lat":7.01,"lon":29.25,"distKm":85.9}]},"SS0406":{"pcode":"SS0406","county":"Wulu","state":"Lakes","centroidLat":6.41226,"centroidLon":29.60744,"topFacilities":[{"name":"Kiir Mayardit Woman Hospital","type":"Hospital","state":"Lakes","county":"Rumbek Centre","lat":6.80064,"lon":29.69063,"distKm":44.2,"typeRank":1},{"name":"Wulu Phcc","type":"Primary Health Care Centre","state":"Lakes","county":"Wulu","lat":6.50887,"lon":29.62733,"distKm":11.0,"typeRank":2},{"name":"Mabor Duang Phcc","type":"Primary Health Care Centre","state":"Lakes","county":"Rumbek East","lat":6.51789,"lon":29.83919,"distKm":28.2,"typeRank":2}],"topMarkets":[{"name":"Wulu","county":"Wulu","state":"Lakes","lat":6.51,"lon":29.63,"distKm":11.1},{"name":"Pacong","county":"Rumbek East","state":"Lakes","lat":6.69,"lon":29.79,"distKm":36.9},{"name":"Aduel","county":"Rumbek East","state":"Lakes","lat":6.63,"lon":29.9,"distKm":40.4}]},"SS0407":{"pcode":"SS0407","county":"Yirol East","state":"Lakes","centroidLat":6.7058,"centroidLon":30.62272,"topFacilities":[{"name":"Yirol County Hospital","type":"Hospital","state":"Lakes","county":"Yirol West","lat":6.55331,"lon":30.50172,"distKm":21.6,"typeRank":1},{"name":"Nyang Phcc","type":"Primary Health Care Centre","state":"Lakes","county":"Yirol East","lat":6.70794,"lon":30.60554,"distKm":1.9,"typeRank":2},{"name":"Adior Phcc","type":"Primary Health Care Centre","state":"Lakes","county":"Yirol East","lat":6.78063,"lon":30.72161,"distKm":13.7,"typeRank":2}],"topMarkets":[{"name":"Nyang","county":"Yirol East","state":"Lakes","lat":6.71,"lon":30.6,"distKm":2.6},{"name":"Yirol","county":"Yirol West","state":"Lakes","lat":6.55,"lon":30.5,"distKm":22.0},{"name":"Paloc","county":"Rumbek East","state":"Lakes","lat":6.77,"lon":30.1,"distKm":58.2}]},"SS0408":{"pcode":"SS0408","county":"Yirol West","state":"Lakes","centroidLat":6.45481,"centroidLon":30.36269,"topFacilities":[{"name":"Yirol County Hospital","type":"Hospital","state":"Lakes","county":"Yirol West","lat":6.55331,"lon":30.50172,"distKm":18.9,"typeRank":1},{"name":"St. Joseph Tb Phcc","type":"Primary Health Care Centre","state":"Lakes","county":"Yirol West","lat":6.54828,"lon":30.49488,"distKm":17.9,"typeRank":2},{"name":"Anuol Phcc","type":"Primary Health Care Centre","state":"Lakes","county":"Yirol West","lat":6.25813,"lon":30.38268,"distKm":22.0,"typeRank":2}],"topMarkets":[{"name":"Yirol","county":"Yirol West","state":"Lakes","lat":6.55,"lon":30.5,"distKm":18.5},{"name":"Akot","county":"Rumbek East","state":"Lakes","lat":6.55,"lon":30.03,"distKm":38.2},{"name":"Nyang","county":"Yirol East","state":"Lakes","lat":6.71,"lon":30.6,"distKm":38.6}]},"SS0501":{"pcode":"SS0501","county":"Aweil Centre","state":"Northern Bahr el Ghazal","centroidLat":8.56014,"centroidLon":27.1136,"topFacilities":[{"name":"Aweil Military Hospital","type":"Hospital","state":"North Bahr","county":"Aweil West","lat":8.75334,"lon":27.37997,"distKm":36.3,"typeRank":1},{"name":"Gabat Phcc","type":"Primary Health Care Centre","state":"North Bahr","county":"Aweil Centre","lat":8.75949,"lon":27.38507,"distKm":37.2,"typeRank":2},{"name":"Udhum Dtc Phcc","type":"Primary Health Care Centre","state":"North Bahr","county":"Aweil West","lat":8.88771,"lon":27.25348,"distKm":39.5,"typeRank":2}],"topMarkets":[{"name":"Aroyo","county":"Aweil Centre","state":"Northern Bahr el Ghazal","lat":8.67,"lon":26.86,"distKm":30.4},{"name":"Aweil Town","county":"Aweil Centre","state":"Northern Bahr el Ghazal","lat":8.74,"lon":27.41,"distKm":38.2},{"name":"Udhum","county":"Aweil West","state":"Northern Bahr el Ghazal","lat":8.9,"lon":27.25,"distKm":40.7}]},"SS0502":{"pcode":"SS0502","county":"Aweil East","state":"Northern Bahr el Ghazal","centroidLat":9.20161,"centroidLon":27.5597,"topFacilities":[{"name":"Aweil Police Hospital","type":"Hospital","state":"North Bahr","county":"Aweil West","lat":8.76745,"lon":27.40515,"distKm":51.2,"typeRank":1},{"name":"Omdurman Phcc","type":"Primary Health Care Centre","state":"North Bahr","county":"Aweil East","lat":9.23435,"lon":27.51199,"distKm":6.4,"typeRank":2},{"name":"Rial Diit Phcc","type":"Primary Health Care Centre","state":"North Bahr","county":"Aweil East","lat":9.13674,"lon":27.51098,"distKm":9.0,"typeRank":2}],"topMarkets":[{"name":"Warawar","county":"Aweil East","state":"Northern Bahr el Ghazal","lat":9.14,"lon":27.61,"distKm":8.8},{"name":"Wanjok","county":"Aweil East","state":"Northern Bahr el Ghazal","lat":9.01,"lon":27.57,"distKm":21.3},{"name":"Malualbaai","county":"Aweil East","state":"Northern Bahr el Ghazal","lat":9.06,"lon":27.76,"distKm":27.0}]},"SS0503":{"pcode":"SS0503","county":"Aweil North","state":"Northern Bahr el Ghazal","centroidLat":9.21778,"centroidLon":26.91046,"topFacilities":[{"name":"Nyamlel Tb Hospital","type":"Hospital","state":"North Bahr","county":"Aweil West","lat":9.13785,"lon":26.98246,"distKm":11.9,"typeRank":1},{"name":"Nyamlel Phcc","type":"Primary Health Care Centre","state":"North Bahr","county":"Aweil West","lat":9.13782,"lon":26.98222,"distKm":11.9,"typeRank":2},{"name":"Majak Kar Phcc","type":"Primary Health Care Centre","state":"North Bahr","county":"Aweil North","lat":9.22371,"lon":27.02167,"distKm":12.2,"typeRank":2}],"topMarkets":[{"name":"Gokmachar","county":"Aweil North","state":"Northern Bahr el Ghazal","lat":9.22,"lon":26.87,"distKm":4.4},{"name":"Pamat","county":"Aweil North","state":"Northern Bahr el Ghazal","lat":9.21,"lon":27.0,"distKm":9.9},{"name":"Nyamlel","county":"Aweil West","state":"Northern Bahr el Ghazal","lat":9.12,"lon":27.0,"distKm":14.7}]},"SS0504":{"pcode":"SS0504","county":"Aweil South","state":"Northern Bahr el Ghazal","centroidLat":8.68093,"centroidLon":27.69093,"topFacilities":[{"name":"Aweil Police Hospital","type":"Hospital","state":"North Bahr","county":"Aweil West","lat":8.76745,"lon":27.40515,"distKm":32.9,"typeRank":1},{"name":"Mayom Lach Phcc","type":"Primary Health Care Centre","state":"North Bahr","county":"Aweil South","lat":8.71205,"lon":27.63967,"distKm":6.6,"typeRank":2},{"name":"Panthou Dtc Phcc","type":"Primary Health Care Centre","state":"North Bahr","county":"Aweil South","lat":8.70838,"lon":27.74966,"distKm":7.1,"typeRank":2}],"topMarkets":[{"name":"Panthou","county":"Aweil South","state":"Northern Bahr el Ghazal","lat":8.69,"lon":27.68,"distKm":1.6},{"name":"Baau","county":"Aweil South","state":"Northern Bahr el Ghazal","lat":8.71,"lon":27.76,"distKm":8.3},{"name":"Wathmok","county":"Aweil South","state":"Northern Bahr el Ghazal","lat":8.67,"lon":27.6,"distKm":10.1}]},"SS0505":{"pcode":"SS0505","county":"Aweil West","state":"Northern Bahr el Ghazal","centroidLat":8.93904,"centroidLon":27.04982,"topFacilities":[{"name":"Nyamlel Tb Hospital","type":"Hospital","state":"North Bahr","county":"Aweil West","lat":9.13785,"lon":26.98246,"distKm":23.3,"typeRank":1},{"name":"Wedweil Phcc","type":"Primary Health Care Centre","state":"North Bahr","county":"Aweil West","lat":9.00498,"lon":27.1916,"distKm":17.2,"typeRank":2},{"name":"Chelcou Phcc","type":"Primary Health Care Centre","state":"North Bahr","county":"Aweil West","lat":8.95791,"lon":26.84896,"distKm":22.2,"typeRank":2}],"topMarkets":[{"name":"Wedwil","county":"Aweil West","state":"Northern Bahr el Ghazal","lat":9.01,"lon":27.19,"distKm":17.3},{"name":"Nyamlel","county":"Aweil West","state":"Northern Bahr el Ghazal","lat":9.12,"lon":27.0,"distKm":20.9},{"name":"Udhum","county":"Aweil West","state":"Northern Bahr el Ghazal","lat":8.9,"lon":27.25,"distKm":22.4}]},"SS0601":{"pcode":"SS0601","county":"Abiemnhom","state":"Unity","centroidLat":9.51252,"centroidLon":29.03002,"topFacilities":[{"name":"Juljok Msf Hospital","type":"Hospital","state":"Abyei Region","county":"Abyei Region","lat":9.35973,"lon":28.5991,"distKm":50.2,"typeRank":1},{"name":"Abiemnom Phcc","type":"Primary Health Care Centre","state":"Unity","county":"Abiemnhom","lat":9.39874,"lon":28.8234,"distKm":26.0,"typeRank":2},{"name":"Mayom Phcc","type":"Primary Health Care Centre","state":"Unity","county":"Mayom","lat":9.22217,"lon":29.17567,"distKm":36.0,"typeRank":2}],"topMarkets":[{"name":"Aniet","county":"Abiemnhom","state":"Unity","lat":9.57,"lon":28.98,"distKm":8.4},{"name":"Abiemnhom","county":"Abiemnhom","state":"Unity","lat":9.4,"lon":28.82,"distKm":26.2},{"name":"Mayom","county":"Mayom","state":"Unity","lat":9.23,"lon":29.17,"distKm":35.0}]},"SS0602":{"pcode":"SS0602","county":"Guit","state":"Unity","centroidLat":9.17348,"centroidLon":29.90688,"topFacilities":[{"name":"Bentiu State Hospital","type":"Hospital","state":"Unity","county":"Rubkona","lat":9.2535,"lon":29.80299,"distKm":14.5,"typeRank":1},{"name":"Guit Phcc","type":"Primary Health Care Centre","state":"Unity","county":"Guit","lat":9.14474,"lon":29.98704,"distKm":9.4,"typeRank":2},{"name":"Nile Gangah Phcc","type":"Primary Health Care Centre","state":"Unity","county":"Rubkona","lat":9.29182,"lon":29.79552,"distKm":18.0,"typeRank":2}],"topMarkets":[{"name":"Guit","county":"Guit","state":"Unity","lat":9.17,"lon":29.91,"distKm":0.5},{"name":"Bentiu","county":"Rubkona","state":"Unity","lat":9.23,"lon":29.83,"distKm":10.5},{"name":"Rubkona","county":"Rubkona","state":"Unity","lat":9.29,"lon":29.79,"distKm":18.2}]},"SS0603":{"pcode":"SS0603","county":"Koch","state":"Unity","centroidLat":8.57365,"centroidLon":29.99685,"topFacilities":[{"name":"Bentiu State Hospital","type":"Hospital","state":"Unity","county":"Rubkona","lat":9.2535,"lon":29.80299,"distKm":78.5,"typeRank":1},{"name":"Koch Phcc","type":"Primary Health Care Centre","state":"Unity","county":"Koch","lat":8.59984,"lon":29.98989,"distKm":3.0,"typeRank":2},{"name":"Patit Phcc","type":"Primary Health Care Centre","state":"Unity","county":"Koch","lat":8.49172,"lon":30.0207,"distKm":9.5,"typeRank":2}],"topMarkets":[{"name":"Koch","county":"Koch","state":"Unity","lat":8.59,"lon":29.99,"distKm":2.0},{"name":"Rubkuay","county":"Mayendit","state":"Unity","lat":8.39,"lon":30.08,"distKm":22.4},{"name":"Leer","county":"Leer","state":"Unity","lat":8.31,"lon":30.14,"distKm":33.3}]},"SS0604":{"pcode":"SS0604","county":"Leer","state":"Unity","centroidLat":8.30143,"centroidLon":30.18027,"topFacilities":[{"name":"Marial Rural Hospital","type":"Hospital","state":"Warrap","county":"Tonj North","lat":8.04265,"lon":29.18997,"distKm":112.7,"typeRank":1},{"name":"Msf-H Leer Phcc","type":"Primary Health Care Centre","state":"Unity","county":"Leer","lat":8.31084,"lon":30.14434,"distKm":4.1,"typeRank":2},{"name":"Thonyor Phcc","type":"Primary Health Care Centre","state":"Unity","county":"Leer","lat":8.22285,"lon":30.22132,"distKm":9.8,"typeRank":2}],"topMarkets":[{"name":"Leer","county":"Leer","state":"Unity","lat":8.31,"lon":30.14,"distKm":4.5},{"name":"Rubkuay","county":"Mayendit","state":"Unity","lat":8.39,"lon":30.08,"distKm":14.8},{"name":"Koch","county":"Koch","state":"Unity","lat":8.59,"lon":29.99,"distKm":38.3}]},"SS0605":{"pcode":"SS0605","county":"Mayiendit","state":"Unity","centroidLat":8.34519,"centroidLon":30.06613,"topFacilities":[{"name":"Marial Rural Hospital","type":"Hospital","state":"Warrap","county":"Tonj North","lat":8.04265,"lon":29.18997,"distKm":102.1,"typeRank":1},{"name":"Rubkuay Phcc","type":"Primary Health Care Centre","state":"Unity","county":"Mayendit","lat":8.39178,"lon":30.07858,"distKm":5.4,"typeRank":2},{"name":"Msf-H Leer Phcc","type":"Primary Health Care Centre","state":"Unity","county":"Leer","lat":8.31084,"lon":30.14434,"distKm":9.4,"typeRank":2}],"topMarkets":[{"name":"Rubkuay","county":"Mayendit","state":"Unity","lat":8.39,"lon":30.08,"distKm":5.2},{"name":"Leer","county":"Leer","state":"Unity","lat":8.31,"lon":30.14,"distKm":9.0},{"name":"Koch","county":"Koch","state":"Unity","lat":8.59,"lon":29.99,"distKm":28.5}]},"SS0606":{"pcode":"SS0606","county":"Mayom","state":"Unity","centroidLat":9.12111,"centroidLon":29.03137,"topFacilities":[{"name":"Juljok Msf Hospital","type":"Hospital","state":"Abyei Region","county":"Abyei Region","lat":9.35973,"lon":28.5991,"distKm":54.4,"typeRank":1},{"name":"Nyiel Phcc","type":"Primary Health Care Centre","state":"Unity","county":"Pariang","lat":9.06922,"lon":29.08745,"distKm":8.4,"typeRank":2},{"name":"Mankien Phcc","type":"Primary Health Care Centre","state":"Unity","county":"Mayom","lat":9.05212,"lon":29.09001,"distKm":10.0,"typeRank":2}],"topMarkets":[{"name":"Mayom","county":"Mayom","state":"Unity","lat":9.23,"lon":29.17,"distKm":19.4},{"name":"Abiemnhom","county":"Abiemnhom","state":"Unity","lat":9.4,"lon":28.82,"distKm":38.7},{"name":"Aniet","county":"Abiemnhom","state":"Unity","lat":9.57,"lon":28.98,"distKm":50.2}]},"SS0607":{"pcode":"SS0607","county":"Panyijar","state":"Unity","centroidLat":7.42319,"centroidLon":30.34587,"topFacilities":[{"name":"Yirol County Hospital","type":"Hospital","state":"Lakes","county":"Yirol West","lat":6.55331,"lon":30.50172,"distKm":98.2,"typeRank":1},{"name":"Ganyiel Phcc","type":"Primary Health Care Centre","state":"Unity","county":"Panyijiar","lat":7.40497,"lon":30.47237,"distKm":14.1,"typeRank":2},{"name":"Pacienjok Phcc","type":"Primary Health Care Centre","state":"Unity","county":"Panyijiar","lat":7.31342,"lon":30.4627,"distKm":17.7,"typeRank":2}],"topMarkets":[{"name":"Ganyliel","county":"Panyijiar","state":"Unity","lat":7.39,"lon":30.47,"distKm":14.2},{"name":"Nyal","county":"Panyijiar","state":"Unity","lat":7.73,"lon":30.25,"distKm":35.7},{"name":"Maper","county":"Rumbek North","state":"Lakes","lat":7.7,"lon":29.72,"distKm":75.5}]},"SS0608":{"pcode":"SS0608","county":"Pariang (Ruweng)","state":"Unity","centroidLat":9.88954,"centroidLon":30.10862,"topFacilities":[{"name":"Pariang Hospital","type":"Hospital","state":"Unity","county":"Pariang","lat":9.91134,"lon":29.98214,"distKm":14.1,"typeRank":1},{"name":"Nile Ganga Phcc","type":"Primary Health Care Centre","state":"Unity","county":"Pariang","lat":9.91266,"lon":29.98399,"distKm":13.9,"typeRank":2},{"name":"Hakima Yacoub Phcc","type":"Primary Health Care Centre","state":"Unity","county":"Pariang","lat":9.97008,"lon":30.27281,"distKm":20.1,"typeRank":2}],"topMarkets":[{"name":"Ajoung Thok","county":"Pariang","state":"Unity","lat":9.96,"lon":30.27,"distKm":19.3},{"name":"Pamir","county":"Pariang","state":"Unity","lat":9.91,"lon":30.36,"distKm":27.6},{"name":"Yida","county":"Pariang","state":"Unity","lat":10.11,"lon":29.98,"distKm":28.3}]},"SS0609":{"pcode":"SS0609","county":"Rubkona","state":"Unity","centroidLat":9.19029,"centroidLon":29.69214,"topFacilities":[{"name":"Bentiu State Hospital","type":"Hospital","state":"Unity","county":"Rubkona","lat":9.2535,"lon":29.80299,"distKm":14.1,"typeRank":1},{"name":"Rubkona Care Phcc","type":"Primary Health Care Centre","state":"Unity","county":"Rubkona","lat":9.29023,"lon":29.78955,"distKm":15.4,"typeRank":2},{"name":"Nile Gangah Phcc","type":"Primary Health Care Centre","state":"Unity","county":"Rubkona","lat":9.29182,"lon":29.79552,"distKm":16.0,"typeRank":2}],"topMarkets":[{"name":"Rubkona","county":"Rubkona","state":"Unity","lat":9.29,"lon":29.79,"distKm":15.4},{"name":"Bentiu","county":"Rubkona","state":"Unity","lat":9.23,"lon":29.83,"distKm":15.8},{"name":"Guit","county":"Guit","state":"Unity","lat":9.17,"lon":29.91,"distKm":24.0}]},"SS0701":{"pcode":"SS0701","county":"Baliet","state":"Upper Nile","centroidLat":9.5341,"centroidLon":32.14507,"topFacilities":[{"name":"Kodok Hospital","type":"Hospital","state":"Upper Nile","county":"Fashoda","lat":9.8907,"lon":32.1163,"distKm":39.8,"typeRank":1},{"name":"Akoka Phcc","type":"Primary Health Care Centre","state":"Upper Nile","county":"Baliet","lat":9.74001,"lon":32.17211,"distKm":23.1,"typeRank":2},{"name":"Baliet Phcc","type":"Primary Health Care Centre","state":"Upper Nile","county":"Baliet","lat":9.296,"lon":32.0578,"distKm":28.2,"typeRank":2}],"topMarkets":[{"name":"Baliet","county":"Baliet","state":"Upper Nile","lat":9.3,"lon":32.06,"distKm":27.7},{"name":"Kodok","county":"Fashoda","state":"Upper Nile","lat":9.89,"lon":32.11,"distKm":39.8},{"name":"Malakal","county":"Malakal","state":"Upper Nile","lat":9.53,"lon":31.66,"distKm":53.2}]},"SS0702":{"pcode":"SS0702","county":"Fashoda","state":"Upper Nile","centroidLat":9.91216,"centroidLon":32.0508,"topFacilities":[{"name":"Kodok Hospital","type":"Hospital","state":"Upper Nile","county":"Fashoda","lat":9.8907,"lon":32.1163,"distKm":7.6,"typeRank":1},{"name":"Adodo Phcc","type":"Primary Health Care Centre","state":"Upper Nile","county":"Fashoda","lat":10.00876,"lon":32.06947,"distKm":10.9,"typeRank":2},{"name":"Rom Phcc","type":"Primary Health Care Centre","state":"Upper Nile","county":"Baliet","lat":9.88204,"lon":32.15368,"distKm":11.8,"typeRank":2}],"topMarkets":[{"name":"Kodok","county":"Fashoda","state":"Upper Nile","lat":9.89,"lon":32.11,"distKm":6.9},{"name":"Malakal (IDP Camp)","county":"Malakal","state":"Upper Nile","lat":9.57,"lon":31.64,"distKm":58.9},{"name":"Malakal","county":"Malakal","state":"Upper Nile","lat":9.53,"lon":31.66,"distKm":60.3}]},"SS0703":{"pcode":"SS0703","county":"Longochuk","state":"Upper Nile","centroidLat":9.08352,"centroidLon":33.51421,"topFacilities":[{"name":"Nasir Hospital","type":"Hospital","state":"Upper Nile","county":"Luakpiny/Nasir","lat":8.61695,"lon":33.07412,"distKm":70.9,"typeRank":1},{"name":"Mathiang Phcc","type":"Primary Health Care Centre","state":"Upper Nile","county":"Longochuk","lat":9.02648,"lon":33.49908,"distKm":6.6,"typeRank":2},{"name":"Watber Phcc","type":"Primary Health Care Centre","state":"Upper Nile","county":"Longochuk","lat":8.94119,"lon":33.56209,"distKm":16.7,"typeRank":2}],"topMarkets":[{"name":"Maiwut","county":"Maiwut","state":"Upper Nile","lat":8.62,"lon":33.93,"distKm":68.9},{"name":"Ulang","county":"Ulang","state":"Upper Nile","lat":8.66,"lon":32.72,"distKm":99.2},{"name":"Bunj","county":"Maban","state":"Upper Nile","lat":9.96,"lon":33.73,"distKm":100.3}]},"SS0704":{"pcode":"SS0704","county":"Luakpiny (Nasir)","state":"Upper Nile","centroidLat":8.71206,"centroidLon":33.12508,"topFacilities":[{"name":"Nasir Hospital","type":"Hospital","state":"Upper Nile","county":"Luakpiny/Nasir","lat":8.61695,"lon":33.07412,"distKm":12.0,"typeRank":1},{"name":"Mading Phcc","type":"Primary Health Care Centre","state":"Upper Nile","county":"Luakpiny/Nasir","lat":8.77329,"lon":33.32192,"distKm":22.7,"typeRank":2},{"name":"Kuich Phcc","type":"Primary Health Care Centre","state":"Upper Nile","county":"Ulang","lat":8.6029,"lon":32.90587,"distKm":27.0,"typeRank":2}],"topMarkets":[{"name":"Ulang","county":"Ulang","state":"Upper Nile","lat":8.66,"lon":32.72,"distKm":44.9},{"name":"Maiwut","county":"Maiwut","state":"Upper Nile","lat":8.62,"lon":33.93,"distKm":89.1},{"name":"Akobo","county":"Akobo","state":"Jonglei","lat":7.79,"lon":33.01,"distKm":103.3}]},"SS0705":{"pcode":"SS0705","county":"Maban","state":"Upper Nile","centroidLat":9.9708,"centroidLon":33.60417,"topFacilities":[{"name":"Bunj Hospital","type":"Hospital","state":"Upper Nile","county":"Maban","lat":9.95841,"lon":33.71144,"distKm":11.8,"typeRank":1},{"name":"Gandrassa Phcc","type":"Primary Health Care Centre","state":"Upper Nile","county":"Maban","lat":9.98524,"lon":33.61301,"distKm":1.9,"typeRank":2},{"name":"Gentil Phcc","type":"Primary Health Care Centre","state":"Upper Nile","county":"Maban","lat":9.98812,"lon":33.58894,"distKm":2.5,"typeRank":2}],"topMarkets":[{"name":"Gendrassa","county":"Maban","state":"Upper Nile","lat":9.99,"lon":33.61,"distKm":2.2},{"name":"Batil","county":"Maban","state":"Upper Nile","lat":9.99,"lon":33.59,"distKm":2.6},{"name":"Bunj","county":"Maban","state":"Upper Nile","lat":9.96,"lon":33.73,"distKm":13.8}]},"SS0706":{"pcode":"SS0706","county":"Maiwut","state":"Upper Nile","centroidLat":8.62206,"centroidLon":33.88213,"topFacilities":[{"name":"Nasir Hospital","type":"Hospital","state":"Upper Nile","county":"Luakpiny/Nasir","lat":8.61695,"lon":33.07412,"distKm":88.8,"typeRank":1},{"name":"Maiwut Phcc","type":"Primary Health Care Centre","state":"Upper Nile","county":"Maiwut","lat":8.60622,"lon":33.92406,"distKm":4.9,"typeRank":2},{"name":"Pagaak Phcc","type":"Primary Health Care Centre","state":"Jonglei","county":"Duk","lat":8.4977,"lon":34.01114,"distKm":19.8,"typeRank":2}],"topMarkets":[{"name":"Maiwut","county":"Maiwut","state":"Upper Nile","lat":8.62,"lon":33.93,"distKm":5.3},{"name":"Ulang","county":"Ulang","state":"Upper Nile","lat":8.66,"lon":32.72,"distKm":127.8},{"name":"Akobo","county":"Akobo","state":"Jonglei","lat":7.79,"lon":33.01,"distKm":133.3}]},"SS0707":{"pcode":"SS0707","county":"Malakal","state":"Upper Nile","centroidLat":9.56749,"centroidLon":31.67702,"topFacilities":[{"name":"Poc Hospital Idps Hospital","type":"Hospital","state":"Upper Nile","county":"Malakal","lat":9.56858,"lon":31.67997,"distKm":0.3,"typeRank":1},{"name":"Poc Clininc Idps Phcc","type":"Primary Health Care Centre","state":"Upper Nile","county":"Malakal","lat":9.56527,"lon":31.67802,"distKm":0.3,"typeRank":2},{"name":"Global Health Phcc","type":"Primary Health Care Centre","state":"Upper Nile","county":"Malakal","lat":9.53133,"lon":31.67592,"distKm":4.0,"typeRank":2}],"topMarkets":[{"name":"Malakal (IDP Camp)","county":"Malakal","state":"Upper Nile","lat":9.57,"lon":31.64,"distKm":4.1},{"name":"Malakal","county":"Malakal","state":"Upper Nile","lat":9.53,"lon":31.66,"distKm":4.6},{"name":"Baliet","county":"Baliet","state":"Upper Nile","lat":9.3,"lon":32.06,"distKm":51.5}]},"SS0708":{"pcode":"SS0708","county":"Manyo","state":"Upper Nile","centroidLat":11.12897,"centroidLon":32.37724,"topFacilities":[{"name":"Melut Civil Hospital","type":"Hospital","state":"Upper Nile","county":"Melut","lat":10.44445,"lon":32.20068,"distKm":78.5,"typeRank":1},{"name":"Jalhak Phcc","type":"Primary Health Care Centre","state":"Upper Nile","county":"Renk","lat":11.04231,"lon":32.69402,"distKm":35.9,"typeRank":2},{"name":"N.H.I Phcc","type":"Primary Health Care Centre","state":"Upper Nile","county":"Manyo","lat":11.60742,"lon":32.72585,"distKm":65.4,"typeRank":2}],"topMarkets":[{"name":"Melut","county":"Melut","state":"Upper Nile","lat":10.45,"lon":32.21,"distKm":77.7},{"name":"Suk Shabi","county":"Renk","state":"Upper Nile","lat":11.74,"lon":32.81,"distKm":82.7},{"name":"Kodok","county":"Fashoda","state":"Upper Nile","lat":9.89,"lon":32.11,"distKm":140.8}]},"SS0709":{"pcode":"SS0709","county":"Melut","state":"Upper Nile","centroidLat":10.40789,"centroidLon":32.38892,"topFacilities":[{"name":"Melut Civil Hospital","type":"Hospital","state":"Upper Nile","county":"Melut","lat":10.44445,"lon":32.20068,"distKm":21.0,"typeRank":1},{"name":"Diingthama Phcc","type":"Primary Health Care Centre","state":"Upper Nile","county":"Melut","lat":10.42343,"lon":32.25876,"distKm":14.3,"typeRank":2},{"name":"Galdora Phcc","type":"Primary Health Care Centre","state":"Upper Nile","county":"Melut","lat":10.27168,"lon":32.46344,"distKm":17.2,"typeRank":2}],"topMarkets":[{"name":"Melut","county":"Melut","state":"Upper Nile","lat":10.45,"lon":32.21,"distKm":20.1},{"name":"Kodok","county":"Fashoda","state":"Upper Nile","lat":9.89,"lon":32.11,"distKm":65.2},{"name":"Malakal (IDP Camp)","county":"Malakal","state":"Upper Nile","lat":9.57,"lon":31.64,"distKm":124.1}]},"SS0710":{"pcode":"SS0710","county":"Panyikang","state":"Upper Nile","centroidLat":9.44072,"centroidLon":31.34526,"topFacilities":[{"name":"Old Fangak Hospital","type":"Hospital","state":"Jonglei","county":"Fangak","lat":9.4052,"lon":31.15691,"distKm":21.0,"typeRank":1},{"name":"Nyiluak Phcc","type":"Primary Health Care Centre","state":"Upper Nile","county":"Panyikang","lat":9.41232,"lon":31.29547,"distKm":6.3,"typeRank":2},{"name":"New Fangak Lele Phcc","type":"Primary Health Care Centre","state":"Jonglei","county":"Fangak","lat":9.40869,"lon":31.16145,"distKm":20.5,"typeRank":2}],"topMarkets":[{"name":"New Fangak","county":"Fangak","state":"Jonglei","lat":9.4,"lon":31.16,"distKm":20.8},{"name":"Tonga","county":"Panyikang","state":"Upper Nile","lat":9.47,"lon":31.05,"distKm":32.5},{"name":"Malakal (IDP Camp)","county":"Malakal","state":"Upper Nile","lat":9.57,"lon":31.64,"distKm":35.4}]},"SS0711":{"pcode":"SS0711","county":"Renk","state":"Upper Nile","centroidLat":11.65637,"centroidLon":32.82081,"topFacilities":[{"name":"Renk Military Hospital","type":"Hospital","state":"Upper Nile","county":"Renk","lat":11.74594,"lon":32.81574,"distKm":10.0,"typeRank":1},{"name":"Abayok Phcc","type":"Primary Health Care Centre","state":"Upper Nile","county":"Renk","lat":11.69692,"lon":32.83001,"distKm":4.6,"typeRank":2},{"name":"National Insuarence Phcc","type":"Primary Health Care Centre","state":"Upper Nile","county":"Renk","lat":11.74271,"lon":32.812,"distKm":9.6,"typeRank":2}],"topMarkets":[{"name":"Suk Shabi","county":"Renk","state":"Upper Nile","lat":11.74,"lon":32.81,"distKm":9.4},{"name":"Melut","county":"Melut","state":"Upper Nile","lat":10.45,"lon":32.21,"distKm":149.8},{"name":"Kaya","county":"Maban","state":"Upper Nile","lat":10.1,"lon":33.58,"distKm":191.9}]},"SS0712":{"pcode":"SS0712","county":"Ulang","state":"Upper Nile","centroidLat":8.66632,"centroidLon":32.7785,"topFacilities":[{"name":"Msf - Holland Hospital","type":"Hospital","state":"Upper Nile","county":"Luakpiny/Nasir","lat":8.61104,"lon":33.05802,"distKm":31.3,"typeRank":1},{"name":"Rup Board Phcc","type":"Primary Health Care Centre","state":"Upper Nile","county":"Ulang","lat":8.66927,"lon":32.79126,"distKm":1.4,"typeRank":2},{"name":"Ulang Phcc","type":"Primary Health Care Centre","state":"Upper Nile","county":"Ulang","lat":8.65539,"lon":32.72171,"distKm":6.4,"typeRank":2}],"topMarkets":[{"name":"Ulang","county":"Ulang","state":"Upper Nile","lat":8.66,"lon":32.72,"distKm":6.5},{"name":"Lankien","county":"Nyirol","state":"Jonglei","lat":8.52,"lon":32.06,"distKm":80.7},{"name":"Walgak","county":"Akobo","state":"Jonglei","lat":8.16,"lon":32.24,"distKm":81.7}]},"SS0801":{"pcode":"SS0801","county":"Gogrial East","state":"Warrap","centroidLat":8.54702,"centroidLon":28.487,"topFacilities":[{"name":"Mother Theresa General Hospital","type":"Hospital","state":"Warrap","county":"Twic","lat":9.09491,"lon":28.42401,"distKm":61.3,"typeRank":1},{"name":"Lietnhom Dtc Phcc","type":"Primary Health Care Centre","state":"Warrap","county":"Gogrial East","lat":8.59759,"lon":28.4726,"distKm":5.8,"typeRank":2},{"name":"Aliek Phcc","type":"Primary Health Care Centre","state":"Warrap","county":"Tonj North","lat":8.39527,"lon":28.6873,"distKm":27.7,"typeRank":2}],"topMarkets":[{"name":"Lunyaker","county":"Gogrial East","state":"Warrap","lat":8.22,"lon":28.39,"distKm":37.9},{"name":"Kuajok","county":"Gogrial West","state":"Warrap","lat":8.47,"lon":28.12,"distKm":41.3},{"name":"Wunrok","county":"Twic","state":"Warrap","lat":8.99,"lon":28.3,"distKm":53.4}]},"SS0802":{"pcode":"SS0802","county":"Gogrial West","state":"Warrap","centroidLat":8.65285,"centroidLon":28.08182,"topFacilities":[{"name":"Kuajok State Hospital","type":"Hospital","state":"Warrap","county":"Gogrial West","lat":8.29658,"lon":27.98236,"distKm":41.1,"typeRank":1},{"name":"Alek Phcc","type":"Primary Health Care Centre","state":"Warrap","county":"Gogrial West","lat":8.66394,"lon":28.14856,"distKm":7.4,"typeRank":2},{"name":"Paweny Phcc","type":"Primary Health Care Centre","state":"Warrap","county":"Gogrial West","lat":8.52648,"lon":28.10037,"distKm":14.2,"typeRank":2}],"topMarkets":[{"name":"Aweil Outskirt","county":"Aweil South","state":"Northern Bahr el Ghazal","lat":8.76,"lon":27.97,"distKm":17.1},{"name":"Kuajok","county":"Gogrial West","state":"Warrap","lat":8.47,"lon":28.12,"distKm":20.8},{"name":"Tiaraliet","county":"Aweil South","state":"Northern Bahr el Ghazal","lat":8.77,"lon":27.88,"distKm":25.7}]},"SS0803":{"pcode":"SS0803","county":"Tonj East","state":"Warrap","centroidLat":7.90072,"centroidLon":29.29406,"topFacilities":[{"name":"St. Daniel Comboni Hospital","type":"Hospital","state":"Warrap","county":"Tonj North","lat":8.03284,"lon":29.18271,"distKm":19.1,"typeRank":1},{"name":"Rumabuth Phcc","type":"Primary Health Care Centre","state":"Warrap","county":"Tonj East","lat":7.97167,"lon":29.285,"distKm":8.0,"typeRank":2},{"name":"Paweng Phcc","type":"Primary Health Care Centre","state":"Warrap","county":"Tonj East","lat":8.05967,"lon":29.42267,"distKm":22.6,"typeRank":2}],"topMarkets":[{"name":"Maper","county":"Rumbek North","state":"Lakes","lat":7.7,"lon":29.72,"distKm":52.0},{"name":"Warrap","county":"Tonj North","state":"Warrap","lat":8.09,"lon":28.64,"distKm":75.0},{"name":"Tonj","county":"Tonj South","state":"Warrap","lat":7.27,"lon":28.68,"distKm":97.5}]},"SS0804":{"pcode":"SS0804","county":"Tonj North","state":"Warrap","centroidLat":8.15788,"centroidLon":28.82017,"topFacilities":[{"name":"St. Daniel Comboni Hospital","type":"Hospital","state":"Warrap","county":"Tonj North","lat":8.03284,"lon":29.18271,"distKm":42.3,"typeRank":1},{"name":"Awul Phcc","type":"Primary Health Care Centre","state":"Warrap","county":"Tonj North","lat":8.18881,"lon":28.73599,"distKm":9.9,"typeRank":2},{"name":"Warrap Phcc","type":"Primary Health Care Centre","state":"Warrap","county":"Tonj North","lat":8.08953,"lon":28.63808,"distKm":21.4,"typeRank":2}],"topMarkets":[{"name":"Warrap","county":"Tonj North","state":"Warrap","lat":8.09,"lon":28.64,"distKm":21.2},{"name":"Lunyaker","county":"Gogrial East","state":"Warrap","lat":8.22,"lon":28.39,"distKm":47.8},{"name":"Kuajok","county":"Gogrial West","state":"Warrap","lat":8.47,"lon":28.12,"distKm":84.5}]},"SS0805":{"pcode":"SS0805","county":"Tonj South","state":"Warrap","centroidLat":7.46393,"centroidLon":28.77346,"topFacilities":[{"name":"Tonj Hospital","type":"Hospital","state":"Warrap","county":"Tonj South","lat":7.2767,"lon":28.67984,"distKm":23.2,"typeRank":1},{"name":"Thiet Phcc","type":"Primary Health Care Centre","state":"Warrap","county":"Tonj South","lat":7.60818,"lon":28.81046,"distKm":16.6,"typeRank":2},{"name":"Manyang-Ngok Phcc","type":"Primary Health Care Centre","state":"Warrap","county":"Tonj South","lat":7.3325,"lon":28.91842,"distKm":21.7,"typeRank":2}],"topMarkets":[{"name":"Tonj","county":"Tonj South","state":"Warrap","lat":7.27,"lon":28.68,"distKm":23.9},{"name":"Warrap","county":"Tonj North","state":"Warrap","lat":8.09,"lon":28.64,"distKm":71.2},{"name":"Cueibet","county":"Cueibet","state":"Lakes","lat":7.01,"lon":29.25,"distKm":72.9}]},"SS0806":{"pcode":"SS0806","county":"Twic","state":"Warrap","centroidLat":9.12487,"centroidLon":28.33082,"topFacilities":[{"name":"Mother Theresa General Hospital","type":"Hospital","state":"Warrap","county":"Twic","lat":9.09491,"lon":28.42401,"distKm":10.8,"typeRank":1},{"name":"Mayen Abun Phcc","type":"Primary Health Care Centre","state":"Warrap","county":"Twic","lat":9.16265,"lon":28.36243,"distKm":5.4,"typeRank":2},{"name":"Turalei Phcc","type":"Primary Health Care Centre","state":"Warrap","county":"Twic","lat":9.08595,"lon":28.43656,"distKm":12.4,"typeRank":2}],"topMarkets":[{"name":"Wunrok","county":"Twic","state":"Warrap","lat":8.99,"lon":28.3,"distKm":15.4},{"name":"Abyei","county":"Twic","state":"Warrap","lat":9.35,"lon":28.28,"distKm":25.6},{"name":"Akon","county":"Gogrial West","state":"Warrap","lat":8.9,"lon":27.97,"distKm":46.9}]},"SS0901":{"pcode":"SS0901","county":"Jur River","state":"Western Bahr el Ghazal","centroidLat":7.81967,"centroidLon":27.99706,"topFacilities":[{"name":"Mary Help Hospital","type":"Hospital","state":"West Bahr","county":"Jur River","lat":7.76114,"lon":27.98899,"distKm":6.6,"typeRank":1},{"name":"Marial Bai Phcc","type":"Primary Health Care Centre","state":"West Bahr","county":"Jur River","lat":7.89063,"lon":27.97841,"distKm":8.2,"typeRank":2},{"name":"Hai Dinka Phcc","type":"Primary Health Care Centre","state":"West Bahr","county":"Wau","lat":7.71462,"lon":27.99888,"distKm":11.7,"typeRank":2}],"topMarkets":[{"name":"Jau","county":"Wau","state":"Western Bahr el Ghazal","lat":7.7,"lon":27.99,"distKm":13.3},{"name":"Nyin Akok","county":"Jur River","state":"Western Bahr el Ghazal","lat":7.93,"lon":27.85,"distKm":20.3},{"name":"Bagari","county":"Wau","state":"Western Bahr el Ghazal","lat":7.57,"lon":27.89,"distKm":30.2}]},"SS0902":{"pcode":"SS0902","county":"Raja","state":"Western Bahr el Ghazal","centroidLat":8.43395,"centroidLon":25.62596,"topFacilities":[{"name":"Raja Hospital","type":"Hospital","state":"West Bahr","county":"Raja","lat":8.46925,"lon":25.67662,"distKm":6.8,"typeRank":1},{"name":"Mayonga A Phcc","type":"Primary Health Care Centre","state":"West Bahr","county":"Raja","lat":8.49307,"lon":25.66941,"distKm":8.1,"typeRank":2},{"name":"Gatarajil Phcc","type":"Primary Health Care Centre","state":"West Bahr","county":"Raja","lat":8.5399,"lon":25.64111,"distKm":11.9,"typeRank":2}],"topMarkets":[{"name":"Raja","county":"Raja","state":"Western Bahr el Ghazal","lat":8.46,"lon":25.68,"distKm":6.6},{"name":"Aroyo","county":"Aweil Centre","state":"Northern Bahr el Ghazal","lat":8.67,"lon":26.86,"distKm":138.2},{"name":"Awada","county":"Aweil Centre","state":"Northern Bahr el Ghazal","lat":8.06,"lon":26.85,"distKm":141.0}]},"SS0903":{"pcode":"SS0903","county":"Wau","state":"Western Bahr el Ghazal","centroidLat":7.56146,"centroidLon":27.82494,"topFacilities":[{"name":"Daniel Comboni Hospital","type":"Hospital","state":"West Bahr","county":"Wau","lat":7.69909,"lon":27.99583,"distKm":24.3,"typeRank":1},{"name":"Ngodakala Phcc","type":"Primary Health Care Centre","state":"West Bahr","county":"Wau","lat":7.5468,"lon":27.822,"distKm":1.7,"typeRank":2},{"name":"Bussere Phcc","type":"Primary Health Care Centre","state":"West Bahr","county":"Wau","lat":7.56479,"lon":27.9643,"distKm":15.4,"typeRank":2}],"topMarkets":[{"name":"Bagari","county":"Wau","state":"Western Bahr el Ghazal","lat":7.57,"lon":27.89,"distKm":7.2},{"name":"Jau","county":"Wau","state":"Western Bahr el Ghazal","lat":7.7,"lon":27.99,"distKm":23.8},{"name":"Nyin Akok","county":"Jur River","state":"Western Bahr el Ghazal","lat":7.93,"lon":27.85,"distKm":41.1}]},"SS1001":{"pcode":"SS1001","county":"Ezo","state":"Western Equatoria","centroidLat":5.0774,"centroidLon":27.69809,"topFacilities":[{"name":"Ezo Hospital","type":"Hospital","state":"West Eq","county":"Ezo","lat":5.07711,"lon":27.46581,"distKm":25.7,"typeRank":1},{"name":"Madoro Phcc","type":"Primary Health Care Centre","state":"West Eq","county":"Ezo","lat":5.07049,"lon":27.5349,"distKm":18.1,"typeRank":2},{"name":"Ezo Phcc","type":"Primary Health Care Centre","state":"West Eq","county":"Ezo","lat":5.07715,"lon":27.46588,"distKm":25.7,"typeRank":2}],"topMarkets":[{"name":"Andari","county":"Ezo","state":"Western Equatoria","lat":4.95,"lon":27.73,"distKm":14.6},{"name":"Ezo Center","county":"Ezo","state":"Western Equatoria","lat":5.07,"lon":27.47,"distKm":25.3},{"name":"Naandi","county":"Ezo","state":"Western Equatoria","lat":4.97,"lon":27.9,"distKm":25.4}]},"SS1002":{"pcode":"SS1002","county":"Ibba","state":"Western Equatoria","centroidLat":4.82424,"centroidLon":29.05595,"topFacilities":[{"name":"Maridi Hospital","type":"Hospital","state":"West Eq","county":"Maridi","lat":4.91619,"lon":29.46444,"distKm":46.4,"typeRank":1},{"name":"Madebe Phcc","type":"Primary Health Care Centre","state":"West Eq","county":"Ibba","lat":4.79847,"lon":28.99732,"distKm":7.1,"typeRank":2},{"name":"Ibba Phcc","type":"Primary Health Care Centre","state":"West Eq","county":"Ibba","lat":4.79101,"lon":29.13417,"distKm":9.4,"typeRank":2}],"topMarkets":[{"name":"Makpandu","county":"Yambio","state":"Western Equatoria","lat":4.74,"lon":28.68,"distKm":42.7},{"name":"Maridi","county":"Maridi","state":"Western Equatoria","lat":4.92,"lon":29.47,"distKm":47.1},{"name":"Yambio","county":"Yambio","state":"Western Equatoria","lat":4.55,"lon":28.42,"distKm":76.8}]},"SS1003":{"pcode":"SS1003","county":"Maridi","state":"Western Equatoria","centroidLat":4.96361,"centroidLon":29.60935,"topFacilities":[{"name":"Maridi Hospital","type":"Hospital","state":"West Eq","county":"Maridi","lat":4.91619,"lon":29.46444,"distKm":16.9,"typeRank":1},{"name":"Betha Saida Ecs Phcc","type":"Primary Health Care Centre","state":"West Eq","county":"Maridi","lat":4.91131,"lon":29.45162,"distKm":18.4,"typeRank":2},{"name":"Don Bosco Clinic Phcc","type":"Primary Health Care Centre","state":"West Eq","county":"Maridi","lat":4.91746,"lon":29.43278,"distKm":20.2,"typeRank":2}],"topMarkets":[{"name":"Maridi","county":"Maridi","state":"Western Equatoria","lat":4.92,"lon":29.47,"distKm":16.2},{"name":"Mundri","county":"Mundri West","state":"Western Equatoria","lat":5.35,"lon":30.32,"distKm":89.7},{"name":"Makpandu","county":"Yambio","state":"Western Equatoria","lat":4.74,"lon":28.68,"distKm":105.9}]},"SS1004":{"pcode":"SS1004","county":"Mundri East","state":"Western Equatoria","centroidLat":5.33363,"centroidLon":30.58752,"topFacilities":[{"name":"Lui Hospital","type":"Hospital","state":"West Eq","county":"Mundri East","lat":5.34281,"lon":30.44867,"distKm":15.4,"typeRank":1},{"name":"Lanyi Phcc","type":"Primary Health Care Centre","state":"West Eq","county":"Mundri East","lat":5.24809,"lon":30.50873,"distKm":12.9,"typeRank":2},{"name":"Kediba Phcc","type":"Primary Health Care Centre","state":"West Eq","county":"Mundri East","lat":5.51262,"lon":30.7255,"distKm":25.1,"typeRank":2}],"topMarkets":[{"name":"Mundri","county":"Mundri West","state":"Western Equatoria","lat":5.35,"lon":30.32,"distKm":29.7},{"name":"Tindilo","county":"Terekeka","state":"Central Equatoria","lat":5.66,"lon":31.06,"distKm":63.7},{"name":"Gudele","county":"Juba","state":"Central Equatoria","lat":4.87,"lon":31.54,"distKm":117.4}]},"SS1005":{"pcode":"SS1005","county":"Mundri West","state":"Western Equatoria","centroidLat":5.32639,"centroidLon":30.29183,"topFacilities":[{"name":"Lui Hospital","type":"Hospital","state":"West Eq","county":"Mundri East","lat":5.34281,"lon":30.44867,"distKm":17.5,"typeRank":1},{"name":"Mundri Phcc","type":"Primary Health Care Centre","state":"West Eq","county":"Mundri West","lat":5.34653,"lon":30.32086,"distKm":3.9,"typeRank":2},{"name":"Kotobi Phcc","type":"Primary Health Care Centre","state":"West Eq","county":"Mundri West","lat":5.24275,"lon":30.20099,"distKm":13.7,"typeRank":2}],"topMarkets":[{"name":"Mundri","county":"Mundri West","state":"Western Equatoria","lat":5.35,"lon":30.32,"distKm":4.1},{"name":"Tindilo","county":"Terekeka","state":"Central Equatoria","lat":5.66,"lon":31.06,"distKm":92.8},{"name":"Maridi","county":"Maridi","state":"Western Equatoria","lat":4.92,"lon":29.47,"distKm":101.6}]},"SS1006":{"pcode":"SS1006","county":"Mvolo","state":"Western Equatoria","centroidLat":5.98256,"centroidLon":30.0771,"topFacilities":[{"name":"Mapuordit Hospital","type":"Hospital","state":"Lakes","county":"Yirol West","lat":6.33793,"lon":30.07236,"distKm":39.5,"typeRank":1},{"name":"Mvolo Phcc","type":"Primary Health Care Centre","state":"West Eq","county":"Mvolo","lat":6.05965,"lon":29.96053,"distKm":15.5,"typeRank":2},{"name":"Yeri Phcc","type":"Primary Health Care Centre","state":"West Eq","county":"Mvolo","lat":5.78467,"lon":30.1043,"distKm":22.2,"typeRank":2}],"topMarkets":[{"name":"Akot","county":"Rumbek East","state":"Lakes","lat":6.55,"lon":30.03,"distKm":63.3},{"name":"Aduel","county":"Rumbek East","state":"Lakes","lat":6.63,"lon":29.9,"distKm":74.6},{"name":"Mundri","county":"Mundri West","state":"Western Equatoria","lat":5.35,"lon":30.32,"distKm":75.3}]},"SS1007":{"pcode":"SS1007","county":"Nagero","state":"Western Equatoria","centroidLat":6.33168,"centroidLon":27.80748,"topFacilities":[{"name":"Tambura County Hospital","type":"Hospital","state":"West Eq","county":"Tambura","lat":5.60033,"lon":27.47496,"distKm":89.3,"typeRank":1},{"name":"Nagero Phcc","type":"Primary Health Care Centre","state":"West Eq","county":"Nagero","lat":6.3876,"lon":27.76498,"distKm":7.8,"typeRank":2},{"name":"Namutina Phcc","type":"Primary Health Care Centre","state":"West Eq","county":"Nagero","lat":6.4733,"lon":27.73456,"distKm":17.7,"typeRank":2}],"topMarkets":[{"name":"Nagero Center","county":"Nagero","state":"Western Equatoria","lat":6.39,"lon":27.77,"distKm":7.7},{"name":"Namutina","county":"Tambura","state":"Western Equatoria","lat":6.03,"lon":27.15,"distKm":80.1},{"name":"Tambura Center","county":"Tambura","state":"Western Equatoria","lat":5.6,"lon":27.47,"distKm":89.5}]},"SS1008":{"pcode":"SS1008","county":"Nzara","state":"Western Equatoria","centroidLat":4.76627,"centroidLon":28.18434,"topFacilities":[{"name":"Nzara Hospital","type":"Hospital","state":"West Eq","county":"Nzara","lat":4.64215,"lon":28.24817,"distKm":15.5,"typeRank":1},{"name":"Nzara Phcc","type":"Primary Health Care Centre","state":"West Eq","county":"Nzara","lat":4.64212,"lon":28.24816,"distKm":15.5,"typeRank":2},{"name":"Ecs Good Samaritan Phcc","type":"Primary Health Care Centre","state":"West Eq","county":"Nzara","lat":4.63707,"lon":28.25495,"distKm":16.4,"typeRank":2}],"topMarkets":[{"name":"Nzara Center","county":"Nzara","state":"Western Equatoria","lat":4.64,"lon":28.26,"distKm":16.4},{"name":"Yubu","county":"Nzara","state":"Western Equatoria","lat":4.62,"lon":28.26,"distKm":18.3},{"name":"Yambio","county":"Yambio","state":"Western Equatoria","lat":4.55,"lon":28.42,"distKm":35.5}]},"SS1009":{"pcode":"SS1009","county":"Tambura","state":"Western Equatoria","centroidLat":5.49778,"centroidLon":27.37219,"topFacilities":[{"name":"Tambura County Hospital","type":"Hospital","state":"West Eq","county":"Tambura","lat":5.60033,"lon":27.47496,"distKm":16.1,"typeRank":1},{"name":"Tambura Phcc","type":"Primary Health Care Centre","state":"West Eq","county":"Tambura","lat":5.59978,"lon":27.47544,"distKm":16.1,"typeRank":2},{"name":"Source Yubu Phcc","type":"Primary Health Care Centre","state":"West Eq","county":"Tambura","lat":5.3885,"lon":27.25123,"distKm":18.1,"typeRank":2}],"topMarkets":[{"name":"Tambura Center","county":"Tambura","state":"Western Equatoria","lat":5.6,"lon":27.47,"distKm":15.7},{"name":"Ezo Center","county":"Ezo","state":"Western Equatoria","lat":5.07,"lon":27.47,"distKm":48.8},{"name":"Namutina","county":"Tambura","state":"Western Equatoria","lat":6.03,"lon":27.15,"distKm":64.1}]},"SS1010":{"pcode":"SS1010","county":"Yambio","state":"Western Equatoria","centroidLat":4.82444,"centroidLon":28.4849,"topFacilities":[{"name":"Yambio State Hospital","type":"Hospital","state":"West Eq","county":"Yambio","lat":4.56615,"lon":28.40755,"distKm":30.0,"typeRank":1},{"name":"Li Rangu Phcc","type":"Primary Health Care Centre","state":"West Eq","county":"Yambio","lat":4.72769,"lon":28.35958,"distKm":17.6,"typeRank":2},{"name":"Makpandu Phcc","type":"Primary Health Care Centre","state":"West Eq","county":"Yambio","lat":4.75115,"lon":28.70167,"distKm":25.4,"typeRank":2}],"topMarkets":[{"name":"Makpandu","county":"Yambio","state":"Western Equatoria","lat":4.74,"lon":28.68,"distKm":23.6},{"name":"Yambio","county":"Yambio","state":"Western Equatoria","lat":4.55,"lon":28.42,"distKm":31.4},{"name":"Nzara Center","county":"Nzara","state":"Western Equatoria","lat":4.64,"lon":28.26,"distKm":32.3}]}}